var tram = {
"type": "FeatureCollection",
"name": "tram",
"crs": { "type": "name", "properties": { "name": "urn:ogc:def:crs:OGC:1.3:CRS84" } },
"features": [
{ "type": "Feature", "properties": { "Naam": "Nieuwezijds Kolk", "Modaliteit": "Tram", "Lijn": "2 | 12 | 13 | 17", "Lijn_select": "02|12|13|17", "RADIUS": 5, "Label": "2 | 12 | 13 | 17 - Nieuwezijds Kolk" }, "geometry": { "type": "Point", "coordinates": [ 4.893349, 52.376065 ] } },
{ "type": "Feature", "properties": { "Naam": "Surinameplein", "Modaliteit": "Tram", "Lijn": "1 | 17", "Lijn_select": "01|17", "RADIUS": 5, "Label": "1 | 17 - Surinameplein" }, "geometry": { "type": "Point", "coordinates": [ 4.853122, 52.358378 ] } },
{ "type": "Feature", "properties": { "Naam": "Johan Huizingalaan", "Modaliteit": "Tram", "Lijn": "1 | 17", "Lijn_select": "01|17", "RADIUS": 5, "Label": "1 | 17 - Johan Huizingalaan" }, "geometry": { "type": "Point", "coordinates": [ 4.82733, 52.35781 ] } },
{ "type": "Feature", "properties": { "Naam": "Spui", "Modaliteit": "Tram", "Lijn": "2 | 12", "Lijn_select": "02|12", "RADIUS": 5, "Label": "2 | 12 - Spui" }, "geometry": { "type": "Point", "coordinates": [ 4.889295, 52.369255 ] } },
{ "type": "Feature", "properties": { "Naam": "Prinsengracht", "Modaliteit": "Tram", "Lijn": "2 | 12", "Lijn_select": "02|12", "RADIUS": 5, "Label": "2 | 12 - Prinsengracht" }, "geometry": { "type": "Point", "coordinates": [ 4.884471, 52.365018 ] } },
{ "type": "Feature", "properties": { "Naam": "Keizergracht", "Modaliteit": "Tram", "Lijn": "2 | 12", "Lijn_select": "02|12", "RADIUS": 5, "Label": "2 | 12 - Keizergracht" }, "geometry": { "type": "Point", "coordinates": [ 4.886451, 52.365957 ] } },
{ "type": "Feature", "properties": { "Naam": "Koningsplein", "Modaliteit": "Tram", "Lijn": "2 | 12", "Lijn_select": "02|12", "RADIUS": 5, "Label": "2 | 12 - Koningsplein" }, "geometry": { "type": "Point", "coordinates": [ 4.888961, 52.366999 ] } },
{ "type": "Feature", "properties": { "Naam": "Matterhorn", "Modaliteit": "Tram", "Lijn": "1", "Lijn_select": "01", "RADIUS": 5, "Label": "1 - Matterhorn" }, "geometry": { "type": "Point", "coordinates": [ 4.77478, 52.353739 ] } },
{ "type": "Feature", "properties": { "Naam": "Pilatus", "Modaliteit": "Tram", "Lijn": "1", "Lijn_select": "01", "RADIUS": 5, "Label": "1 - Pilatus" }, "geometry": { "type": "Point", "coordinates": [ 4.776851, 52.352911 ] } },
{ "type": "Feature", "properties": { "Naam": "Inarisstraat", "Modaliteit": "Tram", "Lijn": "1", "Lijn_select": "01", "RADIUS": 5, "Label": "1 - Inarisstraat" }, "geometry": { "type": "Point", "coordinates": [ 4.783292, 52.350332 ] } },
{ "type": "Feature", "properties": { "Naam": "Baden Powellweg", "Modaliteit": "Tram", "Lijn": "1", "Lijn_select": "01", "RADIUS": 5, "Label": "1 - Baden Powellweg" }, "geometry": { "type": "Point", "coordinates": [ 4.794752, 52.350979 ] } },
{ "type": "Feature", "properties": { "Naam": "Hoekenes", "Modaliteit": "Tram", "Lijn": "1", "Lijn_select": "01", "RADIUS": 5, "Label": "1 - Hoekenes" }, "geometry": { "type": "Point", "coordinates": [ 4.802261, 52.352499 ] } },
{ "type": "Feature", "properties": { "Naam": "Louis Davidsstraat", "Modaliteit": "Tram", "Lijn": "1", "Lijn_select": "01", "RADIUS": 5, "Label": "1 - Louis Davidsstraat" }, "geometry": { "type": "Point", "coordinates": [ 4.808848, 52.353891 ] } },
{ "type": "Feature", "properties": { "Naam": "Eerste Constantijn Huygensstraat \/ Overtoom", "Modaliteit": "Tram", "Lijn": "1 | 3", "Lijn_select": "01|03", "RADIUS": 5, "Label": "1 | 3 - Eerste Constantijn Huygensstraat \/ Overtoom" }, "geometry": { "type": "Point", "coordinates": [ 4.875292, 52.362746 ] } },
{ "type": "Feature", "properties": { "Naam": "Rhijnvis Feithstraat", "Modaliteit": "Tram", "Lijn": "1", "Lijn_select": "01", "RADIUS": 5, "Label": "1 | Rhijnvis Feithstraat" }, "geometry": { "type": "Point", "coordinates": [ 4.860101, 52.358962 ] } },
{ "type": "Feature", "properties": { "Naam": "Kruislaan", "Modaliteit": "Tram", "Lijn": "19", "Lijn_select": "19", "RADIUS": 5, "Label": "19 - Kruislaan" }, "geometry": { "type": "Point", "coordinates": [ 4.940195, 52.347752 ] } },
{ "type": "Feature", "properties": { "Naam": "Brinkstraat", "Modaliteit": "Tram", "Lijn": "19", "Lijn_select": "19", "RADIUS": 5, "Label": "19 - Brinkstraat" }, "geometry": { "type": "Point", "coordinates": [ 4.947654, 52.343068 ] } },
{ "type": "Feature", "properties": { "Naam": "Arent Krijtstraat", "Modaliteit": "Tram", "Lijn": "19", "Lijn_select": "19", "RADIUS": 5, "Label": "19 - Arent Krijtstraat" }, "geometry": { "type": "Point", "coordinates": [ 4.954538, 52.339604 ] } },
{ "type": "Feature", "properties": { "Naam": "Diemerbrug", "Modaliteit": "Tram", "Lijn": "19", "Lijn_select": "19", "RADIUS": 5, "Label": "19 - Diemerbrug" }, "geometry": { "type": "Point", "coordinates": [ 4.9612659, 52.3382925 ] } },
{ "type": "Feature", "properties": { "Naam": "Diemen Sniep", "Modaliteit": "Tram", "Lijn": "19", "Lijn_select": "19", "RADIUS": 5, "Label": "19 - Diemen Sniep" }, "geometry": { "type": "Point", "coordinates": [ 4.969582, 52.336757 ] } },
{ "type": "Feature", "properties": { "Naam": "Dapperstraat", "Modaliteit": "Tram", "Lijn": "1 | 3", "Lijn_select": "01|03", "RADIUS": 5, "Label": "1 | 3 - Dapperstraat" }, "geometry": { "type": "Point", "coordinates": [ 4.929373, 52.361013 ] } },
{ "type": "Feature", "properties": { "Naam": "Meer en Vaart", "Modaliteit": "Tram", "Lijn": "1 | 17", "Lijn_select": "01|17", "RADIUS": 5, "Label": "1 | 17 - Meer en Vaart" }, "geometry": { "type": "Point", "coordinates": [ 4.810142, 52.356395 ] } },
{ "type": "Feature", "properties": { "Naam": "Derkinderenstraat", "Modaliteit": "Tram", "Lijn": "1 | 17", "Lijn_select": "01|17", "RADIUS": 5, "Label": "1 | 17 - Derkinderenstraat" }, "geometry": { "type": "Point", "coordinates": [ 4.840037, 52.357951 ] } },
{ "type": "Feature", "properties": { "Naam": "Corantijnstraat", "Modaliteit": "Tram", "Lijn": "17", "Lijn_select": "17", "RADIUS": 5, "Label": "17 - Corantijnstraat" }, "geometry": { "type": "Point", "coordinates": [ 4.853284, 52.361466 ] } },
{ "type": "Feature", "properties": { "Naam": "Postjesweg \/ Hoofdweg", "Modaliteit": "Tram", "Lijn": "7 - 17", "Lijn_select": "07|17", "RADIUS": 5, "Label": "7 - 17 - Postjesweg \/ Hoofdweg" }, "geometry": { "type": "Point", "coordinates": [ 4.8534415, 52.364239 ] } },
{ "type": "Feature", "properties": { "Naam": "Ten Katestraat", "Modaliteit": "Tram", "Lijn": "7 | 17", "Lijn_select": "07|17", "RADIUS": 5, "Label": "7 | 17 - Ten Katestraat" }, "geometry": { "type": "Point", "coordinates": [ 4.867549, 52.365969 ] } },
{ "type": "Feature", "properties": { "Naam": "Kinkerstraat \/ Bilderdijkstraat", "Modaliteit": "Tram", "Lijn": "3 | 7 | 17", "Lijn_select": "03|07|17", "RADIUS": 5, "Label": "3 | 7 | 17 - Kinkerstraat \/ Bilderdijkstraat" }, "geometry": { "type": "Point", "coordinates": [ 4.872169, 52.36724 ] } },
{ "type": "Feature", "properties": { "Naam": "Leidseplein", "Modaliteit": "Tram", "Lijn": "1 | 2 | 5 | 7 | 12 | 19", "Lijn_select": "01|02|05|07|12|19", "RADIUS": 5, "Label": "1 | 2 | 5 | 7 | 12 | 19 - Leidseplein" }, "geometry": { "type": "Point", "coordinates": [ 4.882353, 52.363769 ] } },
{ "type": "Feature", "properties": { "Naam": "Ecuplein", "Modaliteit": "Tram", "Lijn": "1", "Lijn_select": "01", "RADIUS": 5, "Label": "1 - Ecuplein" }, "geometry": { "type": "Point", "coordinates": [ 4.788602, 52.34977 ] } },
{ "type": "Feature", "properties": { "Naam": "J.P. Heijestraat", "Modaliteit": "Tram", "Lijn": "1", "Lijn_select": "01", "RADIUS": 5, "Label": "1 - J.P. Heijestraat" }, "geometry": { "type": "Point", "coordinates": [ 4.86625, 52.360448 ] } },
{ "type": "Feature", "properties": { "Naam": "Van Hallstraat", "Modaliteit": "Tram", "Lijn": "5", "Lijn_select": "05", "RADIUS": 5, "Label": "5 - Van Hallstraat" }, "geometry": { "type": "Point", "coordinates": [ 4.86987, 52.384231 ] } },
{ "type": "Feature", "properties": { "Naam": "Nieuwe Willemsstraat", "Modaliteit": "Tram", "Lijn": "3", "Lijn_select": "03", "RADIUS": 5, "Label": "3 - Nieuwe Willemsstraat" }, "geometry": { "type": "Point", "coordinates": [ 4.881063, 52.381492 ] } },
{ "type": "Feature", "properties": { "Naam": "Azartplein", "Modaliteit": "Tram", "Lijn": "7", "Lijn_select": "07", "RADIUS": 5, "Label": "7 - Azartplein" }, "geometry": { "type": "Point", "coordinates": [ 4.937336, 52.376737 ] } },
{ "type": "Feature", "properties": { "Naam": "Plein `40-`45", "Modaliteit": "Tram", "Lijn": "7", "Lijn_select": "07", "RADIUS": 5, "Label": "7 - Plein `40-`45" }, "geometry": { "type": "Point", "coordinates": [ 4.821464, 52.381319 ] } },
{ "type": "Feature", "properties": { "Naam": "Van Limburg Stirumstraat", "Modaliteit": "Tram", "Lijn": "5", "Lijn_select": "05", "RADIUS": 5, "Label": "5 - Van Limburg Stirumstraat" }, "geometry": { "type": "Point", "coordinates": [ 4.875046, 52.384356 ] } },
{ "type": "Feature", "properties": { "Naam": "Eerste Coehoornstraat", "Modaliteit": "Tram", "Lijn": "7", "Lijn_select": "07", "RADIUS": 5, "Label": "7 - Eerste Coehoornstraat" }, "geometry": { "type": "Point", "coordinates": [ 4.926464, 52.368267 ] } },
{ "type": "Feature", "properties": { "Naam": "C. van Eesterenlaan", "Modaliteit": "Tram", "Lijn": "7", "Lijn_select": "07", "RADIUS": 5, "Label": "7 - C. van Eesterenlaan" }, "geometry": { "type": "Point", "coordinates": [ 4.93846, 52.3735 ] } },
{ "type": "Feature", "properties": { "Naam": "K. `s-Gravesandestraat", "Modaliteit": "Tram", "Lijn": "1 | 7 | 19", "Lijn_select": "01|07|19", "RADIUS": 5, "Label": "1 | 7 | 19 - K. `s-Gravesandestraat" }, "geometry": { "type": "Point", "coordinates": [ 4.914325, 52.362481 ] } },
{ "type": "Feature", "properties": { "Naam": "Vijzelgracht \/Weteringcircuit", "Modaliteit": "Tram", "Lijn": "1 | 7 | 19 | 24 | 52", "Lijn_select": "01|07|19|24|52", "RADIUS": 5, "Label": "1 | 7 | 19 | 24 | 52 - Vijzelgracht \/Weteringcircuit" }, "geometry": { "type": "Point", "coordinates": [ 4.890948, 52.359626 ] } },
{ "type": "Feature", "properties": { "Naam": "Spiegelgracht", "Modaliteit": "Tram", "Lijn": "1 | 7 | 19", "Lijn_select": "01|07|19", "RADIUS": 5, "Label": "1 | 7 | 19 - Spiegelgracht" }, "geometry": { "type": "Point", "coordinates": [ 4.887262, 52.360883 ] } },
{ "type": "Feature", "properties": { "Naam": "Haarlemmerplein", "Modaliteit": "Tram", "Lijn": "3", "Lijn_select": "03", "RADIUS": 5, "Label": "3 - Haarlemmerplein" }, "geometry": { "type": "Point", "coordinates": [ 4.883593, 52.385038 ] } },
{ "type": "Feature", "properties": { "Naam": "De Wittenkade", "Modaliteit": "Tram", "Lijn": "5", "Lijn_select": "05", "RADIUS": 5, "Label": "5 - De Wittenkade" }, "geometry": { "type": "Point", "coordinates": [ 4.877053, 52.383179 ] } },
{ "type": "Feature", "properties": { "Naam": "Nassaukade", "Modaliteit": "Tram", "Lijn": "5", "Lijn_select": "05", "RADIUS": 5, "Label": "5 - Nassaukade" }, "geometry": { "type": "Point", "coordinates": [ 4.879194, 52.381134 ] } },
{ "type": "Feature", "properties": { "Naam": "Alexanderplein", "Modaliteit": "Tram", "Lijn": "7 | 14 | 19", "Lijn_select": "07|14|19", "RADIUS": 5, "Label": "7 | 14 | 19 - Alexanderplein" }, "geometry": { "type": "Point", "coordinates": [ 4.918934, 52.3636 ] } },
{ "type": "Feature", "properties": { "Naam": "Hoogte Kadijk", "Modaliteit": "Tram", "Lijn": "7", "Lijn_select": "07", "RADIUS": 5, "Label": "7 - Hoogte Kadijk" }, "geometry": { "type": "Point", "coordinates": [ 4.924564, 52.366766 ] } },
{ "type": "Feature", "properties": { "Naam": "Eerste Leeghwaterstraat", "Modaliteit": "Tram", "Lijn": "7", "Lijn_select": "07", "RADIUS": 5, "Label": "7 - Eerste Leeghwaterstraat" }, "geometry": { "type": "Point", "coordinates": [ 4.929696, 52.370252 ] } },
{ "type": "Feature", "properties": { "Naam": "Rietlandpark", "Modaliteit": "Tram", "Lijn": "7 | 26", "Lijn_select": "07|26", "RADIUS": 5, "Label": "7 | 26 - Rietlandpark" }, "geometry": { "type": "Point", "coordinates": [ 4.934366, 52.372893 ] } },
{ "type": "Feature", "properties": { "Naam": "Willem de Zwijerlaan", "Modaliteit": "Tram", "Lijn": "13 | 19", "Lijn_select": "13|19", "RADIUS": 5, "Label": "13 | 19 - Willem de Zwijerlaan" }, "geometry": { "type": "Point", "coordinates": [ 4.86393, 52.370531 ] } },
{ "type": "Feature", "properties": { "Naam": "De Pijp", "Modaliteit": "Tram", "Lijn": "3 | 12 | 24 | 52", "Lijn_select": "03|12|24|52", "RADIUS": 5, "Label": "3 | 12 | 24 | 52 - De Pijp" }, "geometry": { "type": "Point", "coordinates": [ 4.891112, 52.352784 ] } },
{ "type": "Feature", "properties": { "Naam": "Wiltzanghlaan", "Modaliteit": "Tram", "Lijn": "19", "Lijn_select": "19", "RADIUS": 5, "Label": "19 - Wiltzanghlaan" }, "geometry": { "type": "Point", "coordinates": [ 4.851314, 52.382568 ] } },
{ "type": "Feature", "properties": { "Naam": "Molenwerf", "Modaliteit": "Tram", "Lijn": "19", "Lijn_select": "19", "RADIUS": 5, "Label": "19 - Molenwerf" }, "geometry": { "type": "Point", "coordinates": [ 4.846421, 52.385882 ] } },
{ "type": "Feature", "properties": { "Naam": "Scheldestraat", "Modaliteit": "Tram", "Lijn": "12", "Lijn_select": "12", "RADIUS": 5, "Label": "12 - Scheldestraat" }, "geometry": { "type": "Point", "coordinates": [ 4.891167, 52.347339 ] } },
{ "type": "Feature", "properties": { "Naam": "Europaplein", "Modaliteit": "Tram", "Lijn": "4 | 52", "Lijn_select": "04|52", "RADIUS": 5, "Label": "4 | 52 - Europaplein" }, "geometry": { "type": "Point", "coordinates": [ 4.891992, 52.340212 ] } },
{ "type": "Feature", "properties": { "Naam": "Waalstraat", "Modaliteit": "Tram", "Lijn": "4", "Lijn_select": "04", "RADIUS": 5, "Label": "4 - Waalstraat" }, "geometry": { "type": "Point", "coordinates": [ 4.900816, 52.344523 ] } },
{ "type": "Feature", "properties": { "Naam": "Maasstraat", "Modaliteit": "Tram", "Lijn": "4", "Lijn_select": "04", "RADIUS": 5, "Label": "4 - Maasstraat" }, "geometry": { "type": "Point", "coordinates": [ 4.896595, 52.342993 ] } },
{ "type": "Feature", "properties": { "Naam": "Dintelstraat", "Modaliteit": "Tram", "Lijn": "4", "Lijn_select": "04", "RADIUS": 5, "Label": "4 - Dintelstraat" }, "geometry": { "type": "Point", "coordinates": [ 4.893045, 52.341904 ] } },
{ "type": "Feature", "properties": { "Naam": "Amstelveen Stadshart", "Modaliteit": "Tram", "Lijn": "5 | 6", "Lijn_select": "05|06", "RADIUS": 5, "Label": "5 | 6 - Amstelveen Stadshart" }, "geometry": { "type": "Point", "coordinates": [ 4.867284, 52.301249 ] } },
{ "type": "Feature", "properties": { "Naam": "Marco Polostraat", "Modaliteit": "Tram", "Lijn": "13", "Lijn_select": "13", "RADIUS": 5, "Label": "13 - Marco Polostraat" }, "geometry": { "type": "Point", "coordinates": [ 4.855365, 52.370914 ] } },
{ "type": "Feature", "properties": { "Naam": "Jan van Galenstraat", "Modaliteit": "Tram", "Lijn": "19", "Lijn_select": "19", "RADIUS": 5, "Label": "19 - Jan van Galenstraat" }, "geometry": { "type": "Point", "coordinates": [ 4.858565, 52.374684 ] } },
{ "type": "Feature", "properties": { "Naam": "Rozengracht \/ Marnixstraat", "Modaliteit": "Tram", "Lijn": "5 | 13 | 17 | 19", "Lijn_select": "05|13|17|19", "RADIUS": 5, "Label": "5 | 13 | 17 | 19 - Rozengracht \/ Marnixstraat" }, "geometry": { "type": "Point", "coordinates": [ 4.875889, 52.372174 ] } },
{ "type": "Feature", "properties": { "Naam": "Roelof Hartplein", "Modaliteit": "Tram", "Lijn": "3 | 5 | 12 | 24", "Lijn_select": "03|05|12|24", "RADIUS": 5, "Label": "3 | 5 | 12 | 24 - Roelof Hartplein" }, "geometry": { "type": "Point", "coordinates": [ 4.88236, 52.352852 ] } },
{ "type": "Feature", "properties": { "Naam": "Bos en Lommerweg", "Modaliteit": "Tram", "Lijn": "19", "Lijn_select": "19", "RADIUS": 5, "Label": "19 - Bos en Lommerweg" }, "geometry": { "type": "Point", "coordinates": [ 4.854874, 52.380557 ] } },
{ "type": "Feature", "properties": { "Naam": "Maasstraat", "Modaliteit": "Tram", "Lijn": "12", "Lijn_select": "12", "RADIUS": 5, "Label": "12 - Maasstraat" }, "geometry": { "type": "Point", "coordinates": [ 4.895131, 52.346933 ] } },
{ "type": "Feature", "properties": { "Naam": "Waalstraat", "Modaliteit": "Tram", "Lijn": "12", "Lijn_select": "12", "RADIUS": 5, "Label": "12 - Waalstraat" }, "geometry": { "type": "Point", "coordinates": [ 4.899977, 52.346691 ] } },
{ "type": "Feature", "properties": { "Naam": "Cornelis Troostplein", "Modaliteit": "Tram", "Lijn": "12", "Lijn_select": "12", "RADIUS": 5, "Label": "12 - Cornelis Troostplein" }, "geometry": { "type": "Point", "coordinates": [ 4.891548, 52.350191 ] } },
{ "type": "Feature", "properties": { "Naam": "Dam", "Modaliteit": "Tram", "Lijn": "2 | 12 | 13 | 17", "Lijn_select": "02|12|13|17", "RADIUS": 5, "Label": "2 | 12 | 13 | 17 - Dam" }, "geometry": { "type": "Point", "coordinates": [ 4.890517, 52.373155 ] } },
{ "type": "Feature", "properties": { "Naam": "Burg. Van Leeuwenlaan", "Modaliteit": "Tram", "Lijn": "13", "Lijn_select": "13", "RADIUS": 5, "Label": "13 - Burg. Van Leeuwenlaan" }, "geometry": { "type": "Point", "coordinates": [ 4.812453, 52.376423 ] } },
{ "type": "Feature", "properties": { "Naam": "Burg. Fockstraat", "Modaliteit": "Tram", "Lijn": "7", "Lijn_select": "07", "RADIUS": 5, "Label": "7 - Burg. Fockstraat" }, "geometry": { "type": "Point", "coordinates": [ 4.832248, 52.379715 ] } },
{ "type": "Feature", "properties": { "Naam": "Burg.Eliasstraat", "Modaliteit": "Tram", "Lijn": "7", "Lijn_select": "07", "RADIUS": 5, "Label": "7 - Burg.Eliasstraat" }, "geometry": { "type": "Point", "coordinates": [ 4.826829, 52.380565 ] } },
{ "type": "Feature", "properties": { "Naam": "Burg. Rendorpstraat", "Modaliteit": "Tram", "Lijn": "13", "Lijn_select": "13", "RADIUS": 5, "Label": "13 - Burg. Rendorpstraat" }, "geometry": { "type": "Point", "coordinates": [ 4.827318, 52.374405 ] } },
{ "type": "Feature", "properties": { "Naam": "Admiraal Helfrichstraat", "Modaliteit": "Tram", "Lijn": "13", "Lijn_select": "13", "RADIUS": 5, "Label": "13 - Admiraal Helfrichstraat" }, "geometry": { "type": "Point", "coordinates": [ 4.844122, 52.369428 ] } },
{ "type": "Feature", "properties": { "Naam": "Erasmusgracht", "Modaliteit": "Tram", "Lijn": "7", "Lijn_select": "07", "RADIUS": 5, "Label": "7 - Erasmusgracht" }, "geometry": { "type": "Point", "coordinates": [ 4.8469921, 52.3762584 ] } },
{ "type": "Feature", "properties": { "Naam": "Dr. H. Colijnstraat", "Modaliteit": "Tram", "Lijn": "13", "Lijn_select": "13", "RADIUS": 5, "Label": "13 - Dr. H. Colijnstraat" }, "geometry": { "type": "Point", "coordinates": [ 4.806468, 52.376939 ] } },
{ "type": "Feature", "properties": { "Naam": "Lambertus Zijlplein", "Modaliteit": "Tram", "Lijn": "13", "Lijn_select": "13", "RADIUS": 5, "Label": "13 - Lambertus Zijlplein" }, "geometry": { "type": "Point", "coordinates": [ 4.803274, 52.377255 ] } },
{ "type": "Feature", "properties": { "Naam": "Mercatorplein", "Modaliteit": "Tram", "Lijn": "7 | 13", "Lijn_select": "07|13", "RADIUS": 5, "Label": "7 | 13 - Mercatorplein" }, "geometry": { "type": "Point", "coordinates": [ 4.850266, 52.370033 ] } },
{ "type": "Feature", "properties": { "Naam": "Jan Voermanstraat", "Modaliteit": "Tram", "Lijn": "13", "Lijn_select": "13", "RADIUS": 5, "Label": "13 - Jan Voermanstraat" }, "geometry": { "type": "Point", "coordinates": [ 4.838209, 52.369642 ] } },
{ "type": "Feature", "properties": { "Naam": "Sloterpark", "Modaliteit": "Tram", "Lijn": "7", "Lijn_select": "07", "RADIUS": 5, "Label": "7 - Sloterpark" }, "geometry": { "type": "Point", "coordinates": [ 4.818878, 52.372843 ] } },
{ "type": "Feature", "properties": { "Naam": "Rembrandtplein", "Modaliteit": "Tram", "Lijn": "4 | 14", "Lijn_select": "04|14", "RADIUS": 5, "Label": "4 | 14 - Rembrandtplein" }, "geometry": { "type": "Point", "coordinates": [ 4.896578, 52.366238 ] } },
{ "type": "Feature", "properties": { "Naam": "Artis", "Modaliteit": "Tram", "Lijn": "14", "Lijn_select": "14", "RADIUS": 5, "Label": "14 - Artis" }, "geometry": { "type": "Point", "coordinates": [ 4.911175, 52.366622 ] } },
{ "type": "Feature", "properties": { "Naam": "Plantage Lepellaan", "Modaliteit": "Tram", "Lijn": "14", "Lijn_select": "14", "RADIUS": 5, "Label": "14 - Plantage Lepellaan" }, "geometry": { "type": "Point", "coordinates": [ 4.915418, 52.365156 ] } },
{ "type": "Feature", "properties": { "Naam": "Burg. Röellstraat \/ Slotermerlaan", "Modaliteit": "Tram", "Lijn": "7 | 13", "Lijn_select": "07|13", "RADIUS": 5, "Label": "7 | 13 - Burg. Röellstraat \/ Slotermerlaan" }, "geometry": { "type": "Point", "coordinates": [ 4.819025, 52.375689 ] } },
{ "type": "Feature", "properties": { "Naam": "Flevopark", "Modaliteit": "Tram", "Lijn": "3 | 14", "Lijn_select": "03|14", "RADIUS": 5, "Label": "3 | 14 - Flevopark" }, "geometry": { "type": "Point", "coordinates": [ 4.951403, 52.365166 ] } },
{ "type": "Feature", "properties": { "Naam": "Mr. Visserplein", "Modaliteit": "Tram", "Lijn": "14", "Lijn_select": "14", "RADIUS": 5, "Label": "14 - Mr. Visserplein" }, "geometry": { "type": "Point", "coordinates": [ 4.905703, 52.367816 ] } },
{ "type": "Feature", "properties": { "Naam": "Eerste Van Swindenstraat", "Modaliteit": "Tram", "Lijn": "19", "Lijn_select": "19", "RADIUS": 5, "Label": "19 - Eerste Van Swindenstraat" }, "geometry": { "type": "Point", "coordinates": [ 4.923985, 52.361913 ] } },
{ "type": "Feature", "properties": { "Naam": "Linnaeusstraat \/ Wijttenbachstraat", "Modaliteit": "Tram", "Lijn": "1 | 3 | 19", "Lijn_select": "01|03|19", "RADIUS": 5, "Label": "1 | 3 | 19 - Linnaeusstraat \/ Wijttenbachstraat" }, "geometry": { "type": "Point", "coordinates": [ 4.9253, 52.360012 ] } },
{ "type": "Feature", "properties": { "Naam": "Insulindeweg", "Modaliteit": "Tram", "Lijn": "3 | 14", "Lijn_select": "03|14", "RADIUS": 5, "Label": "3 | 14 - Insulindeweg" }, "geometry": { "type": "Point", "coordinates": [ 4.947757, 52.364867 ] } },
{ "type": "Feature", "properties": { "Naam": "Jan Tooropstraat", "Modaliteit": "Tram", "Lijn": "13", "Lijn_select": "13", "RADIUS": 5, "Label": "13 - Jan Tooropstraat" }, "geometry": { "type": "Point", "coordinates": [ 4.83811, 52.371482 ] } },
{ "type": "Feature", "properties": { "Naam": "Bos en Lommerplein", "Modaliteit": "Tram", "Lijn": "7", "Lijn_select": "07|14", "RADIUS": 5, "Label": "7 - Bos en Lommerplein" }, "geometry": { "type": "Point", "coordinates": [ 4.845753, 52.377871 ] } },
{ "type": "Feature", "properties": { "Naam": "Soembawastraat", "Modaliteit": "Tram", "Lijn": "3 | 14", "Lijn_select": "03|14", "RADIUS": 5, "Label": "3 | 14 - Soembawastraat" }, "geometry": { "type": "Point", "coordinates": [ 4.943728, 52.362207 ] } },
{ "type": "Feature", "properties": { "Naam": "Molukkenstraat", "Modaliteit": "Tram", "Lijn": "3 | 14", "Lijn_select": "03|14", "RADIUS": 5, "Label": "3 | 14 - Molukkenstraat" }, "geometry": { "type": "Point", "coordinates": [ 4.940099, 52.361691 ] } },
{ "type": "Feature", "properties": { "Naam": "Hogeweg", "Modaliteit": "Tram", "Lijn": "19", "Lijn_select": "19", "RADIUS": 5, "Label": "19 - Hogeweg" }, "geometry": { "type": "Point", "coordinates": [ 4.930968, 52.353483 ] } },
{ "type": "Feature", "properties": { "Naam": "Hugo de Vrieslaan", "Modaliteit": "Tram", "Lijn": "19", "Lijn_select": "19", "RADIUS": 5, "Label": "19 - Hugo de Vrieslaan" }, "geometry": { "type": "Point", "coordinates": [ 4.935169, 52.350853 ] } },
{ "type": "Feature", "properties": { "Naam": "Pontanusstraat", "Modaliteit": "Tram", "Lijn": "14", "Lijn_select": "14", "RADIUS": 5, "Label": "14 - Pontanusstraat" }, "geometry": { "type": "Point", "coordinates": [ 4.927677, 52.365919 ] } },
{ "type": "Feature", "properties": { "Naam": "Zeeburgerdijk", "Modaliteit": "Tram", "Lijn": "14", "Lijn_select": "14", "RADIUS": 5, "Label": "14 - Zeeburgerdijk" }, "geometry": { "type": "Point", "coordinates": [ 4.932681, 52.365806 ] } },
{ "type": "Feature", "properties": { "Naam": "Javaplein", "Modaliteit": "Tram", "Lijn": "14", "Lijn_select": "14", "RADIUS": 5, "Label": "14 - Javaplein" }, "geometry": { "type": "Point", "coordinates": [ 4.937672, 52.364321 ] } },
{ "type": "Feature", "properties": { "Naam": "Dam", "Modaliteit": "Tram", "Lijn": "4 | 14", "Lijn_select": "04|14", "RADIUS": 5, "Label": "4 | 14 - Dam" }, "geometry": { "type": "Point", "coordinates": [ 4.894056, 52.37381 ] } },
{ "type": "Feature", "properties": { "Naam": "Rokin", "Modaliteit": "Tram", "Lijn": "4 | 14 | 52", "Lijn_select": "04|14|52", "RADIUS": 5, "Label": "4 | 14 | 52 - Rokin" }, "geometry": { "type": "Point", "coordinates": [ 4.892383, 52.369794 ] } },
{ "type": "Feature", "properties": { "Naam": "Marie Heinekenplein", "Modaliteit": "Tram", "Lijn": "24", "Lijn_select": "24", "RADIUS": 5, "Label": "24 - Marie Heinekenplein" }, "geometry": { "type": "Point", "coordinates": [ 4.890706, 52.357066 ] } },
{ "type": "Feature", "properties": { "Naam": "IJsbaanpad", "Modaliteit": "Tram", "Lijn": "24", "Lijn_select": "24", "RADIUS": 5, "Label": "24 - IJsbaanpad" }, "geometry": { "type": "Point", "coordinates": [ 4.857702, 52.34112 ] } },
{ "type": "Feature", "properties": { "Naam": "Museumplein", "Modaliteit": "Tram", "Lijn": "3 | 5 | 12", "Lijn_select": "03|05|12", "RADIUS": 5, "Label": "3 | 5 | 12 - Museumplein" }, "geometry": { "type": "Point", "coordinates": [ 4.87973, 52.356541 ] } },
{ "type": "Feature", "properties": { "Naam": "Dijkgraafplein", "Modaliteit": "Tram", "Lijn": "17", "Lijn_select": "17", "RADIUS": 5, "Label": "17 - Dijkgraafplein" }, "geometry": { "type": "Point", "coordinates": [ 4.786916, 52.355542 ] } },
{ "type": "Feature", "properties": { "Naam": "Baden Powellweg", "Modaliteit": "Tram", "Lijn": "17", "Lijn_select": "17", "RADIUS": 5, "Label": "17 - Baden Powellweg" }, "geometry": { "type": "Point", "coordinates": [ 4.791589, 52.356486 ] } },
{ "type": "Feature", "properties": { "Naam": "Hoekenes", "Modaliteit": "Tram", "Lijn": "17", "Lijn_select": "17", "RADIUS": 5, "Label": "17 - Hoekenes" }, "geometry": { "type": "Point", "coordinates": [ 4.7991, 52.357998 ] } },
{ "type": "Feature", "properties": { "Naam": "Osdorpplein", "Modaliteit": "Tram", "Lijn": "17", "Lijn_select": "17", "RADIUS": 5, "Label": "17 - Osdorpplein" }, "geometry": { "type": "Point", "coordinates": [ 4.803208, 52.359412 ] } },
{ "type": "Feature", "properties": { "Naam": "Ruimzicht", "Modaliteit": "Tram", "Lijn": "17", "Lijn_select": "17", "RADIUS": 5, "Label": "17 - Ruimzicht" }, "geometry": { "type": "Point", "coordinates": [ 4.807562, 52.359616 ] } },
{ "type": "Feature", "properties": { "Naam": "Elandsgracht", "Modaliteit": "Tram", "Lijn": "5 | 7 | 17 | 19", "Lijn_select": "05|07|17|19", "RADIUS": 5, "Label": "5 | 7 | 17 | 19 - Elandsgracht" }, "geometry": { "type": "Point", "coordinates": [ 4.877957, 52.368801 ] } },
{ "type": "Feature", "properties": { "Naam": "De Clercqstraat \/ Bilderdijkstraat", "Modaliteit": "Tram", "Lijn": "3 | 13 | 19", "Lijn_select": "03|13|19", "RADIUS": 5, "Label": "3 | 13 | 19 - De Clercqstraat \/ Bilderdijkstraat" }, "geometry": { "type": "Point", "coordinates": [ 4.870338, 52.37088 ] } },
{ "type": "Feature", "properties": { "Naam": "Amstelveenseweg", "Modaliteit": "Tram", "Lijn": "2", "Lijn_select": "02", "RADIUS": 5, "Label": "2 - Amstelveenseweg" }, "geometry": { "type": "Point", "coordinates": [ 4.856601, 52.351504 ] } },
{ "type": "Feature", "properties": { "Naam": "Westlandgracht", "Modaliteit": "Tram", "Lijn": "2", "Lijn_select": "02", "RADIUS": 5, "Label": "2 - Westlandgracht" }, "geometry": { "type": "Point", "coordinates": [ 4.845334, 52.351578 ] } },
{ "type": "Feature", "properties": { "Naam": "Laan van Vlaanderen", "Modaliteit": "Tram", "Lijn": "2", "Lijn_select": "02", "RADIUS": 5, "Label": "2 - Laan van Vlaanderen" }, "geometry": { "type": "Point", "coordinates": [ 4.816064, 52.346457 ] } },
{ "type": "Feature", "properties": { "Naam": "Kasterleepark", "Modaliteit": "Tram", "Lijn": "2", "Lijn_select": "02", "RADIUS": 5, "Label": "2 - Kasterleepark" }, "geometry": { "type": "Point", "coordinates": [ 4.810925, 52.346354 ] } },
{ "type": "Feature", "properties": { "Naam": "Oudenaardeplantsoen", "Modaliteit": "Tram", "Lijn": "2", "Lijn_select": "02", "RADIUS": 5, "Label": "2 - Oudenaardeplantsoen" }, "geometry": { "type": "Point", "coordinates": [ 4.803959, 52.34499 ] } },
{ "type": "Feature", "properties": { "Naam": "Cornelis Schuytstraat", "Modaliteit": "Tram", "Lijn": "2", "Lijn_select": "02", "RADIUS": 5, "Label": "2 - Cornelis Schuytstraat" }, "geometry": { "type": "Point", "coordinates": [ 4.870705, 52.356012 ] } },
{ "type": "Feature", "properties": { "Naam": "Valeriusplein", "Modaliteit": "Tram", "Lijn": "2", "Lijn_select": "02", "RADIUS": 5, "Label": "2 - Valeriusplein" }, "geometry": { "type": "Point", "coordinates": [ 4.863509, 52.35322 ] } },
{ "type": "Feature", "properties": { "Naam": "Delflandlaan", "Modaliteit": "Tram", "Lijn": "2", "Lijn_select": "02", "RADIUS": 5, "Label": "2 - Delflandlaan" }, "geometry": { "type": "Point", "coordinates": [ 4.840882, 52.351545 ] } },
{ "type": "Feature", "properties": { "Naam": "Louwesweg", "Modaliteit": "Tram", "Lijn": "2", "Lijn_select": "02", "RADIUS": 5, "Label": "2 - Louwesweg" }, "geometry": { "type": "Point", "coordinates": [ 4.824631, 52.346688 ] } },
{ "type": "Feature", "properties": { "Naam": "Johan Huizingalaan", "Modaliteit": "Tram", "Lijn": "2", "Lijn_select": "02", "RADIUS": 5, "Label": "2 - Johan Huizingalaan" }, "geometry": { "type": "Point", "coordinates": [ 4.827482, 52.349158 ] } },
{ "type": "Feature", "properties": { "Naam": "Hoofddorpplein", "Modaliteit": "Tram", "Lijn": "2", "Lijn_select": "02", "RADIUS": 5, "Label": "2 - Hoofddorpplein" }, "geometry": { "type": "Point", "coordinates": [ 4.84994, 52.351303 ] } },
{ "type": "Feature", "properties": { "Naam": "Van Baerlestraat", "Modaliteit": "Tram", "Lijn": "2 | 3 | 5 | 12", "Lijn_select": "02|03|05|12", "RADIUS": 5, "Label": "2 | 3 | 5 | 12 - Van Baerlestraat" }, "geometry": { "type": "Point", "coordinates": [ 4.878568, 52.358143 ] } },
{ "type": "Feature", "properties": { "Naam": "Prinses Irenestraat", "Modaliteit": "Tram", "Lijn": "5", "Lijn_select": "05", "RADIUS": 5, "Label": "5 - Prinses Irenestraat" }, "geometry": { "type": "Point", "coordinates": [ 4.876776, 52.342898 ] } },
{ "type": "Feature", "properties": { "Naam": "Stadionweg \/ Beethovenstraat", "Modaliteit": "Tram", "Lijn": "5 | 24", "Lijn_select": "05|24", "RADIUS": 5, "Label": "5 | 24 - Stadionweg \/ Beethovenstraat" }, "geometry": { "type": "Point", "coordinates": [ 4.876907, 52.347091 ] } },
{ "type": "Feature", "properties": { "Naam": "Minervaplein", "Modaliteit": "Tram", "Lijn": "24", "Lijn_select": "24", "RADIUS": 5, "Label": "24 - Minervaplein" }, "geometry": { "type": "Point", "coordinates": [ 4.872533, 52.34673 ] } },
{ "type": "Feature", "properties": { "Naam": "IJburg", "Modaliteit": "Tram", "Lijn": "26", "Lijn_select": "26", "RADIUS": 5, "Label": "26 - IJburg" }, "geometry": { "type": "Point", "coordinates": [ 5.004306, 52.350944 ] } },
{ "type": "Feature", "properties": { "Naam": "Oostpoort", "Modaliteit": "Tram", "Lijn": "19", "Lijn_select": "19", "RADIUS": 5, "Label": "19 - Oostpoort" }, "geometry": { "type": "Point", "coordinates": [ 4.927082, 52.357207 ] } },
{ "type": "Feature", "properties": { "Naam": "Muziekgebouw Bimhuis", "Modaliteit": "Tram", "Lijn": "26", "Lijn_select": "26", "RADIUS": 5, "Label": "26 - Muziekgebouw Bimhuis" }, "geometry": { "type": "Point", "coordinates": [ 4.913026, 52.377241 ] } },
{ "type": "Feature", "properties": { "Naam": "Kattenburgerstraat", "Modaliteit": "Tram", "Lijn": "26", "Lijn_select": "26", "RADIUS": 5, "Label": "26 - Kattenburgerstraat" }, "geometry": { "type": "Point", "coordinates": [ 4.921583, 52.376116 ] } },
{ "type": "Feature", "properties": { "Naam": "Zuiderzeeweg", "Modaliteit": "Tram", "Lijn": "26", "Lijn_select": "26", "RADIUS": 5, "Label": "26 - Zuiderzeeweg" }, "geometry": { "type": "Point", "coordinates": [ 4.961515, 52.37202 ] } },
{ "type": "Feature", "properties": { "Naam": "Steigereiland", "Modaliteit": "Tram", "Lijn": "26", "Lijn_select": "26", "RADIUS": 5, "Label": "26 - Steigereiland" }, "geometry": { "type": "Point", "coordinates": [ 4.98044, 52.362987 ] } },
{ "type": "Feature", "properties": { "Naam": "Vennepluimstraat", "Modaliteit": "Tram", "Lijn": "26", "Lijn_select": "26", "RADIUS": 5, "Label": "26 - Vennepluimstraat" }, "geometry": { "type": "Point", "coordinates": [ 4.990814, 52.357578 ] } },
{ "type": "Feature", "properties": { "Naam": "Diemerparklaan", "Modaliteit": "Tram", "Lijn": "26", "Lijn_select": "26", "RADIUS": 5, "Label": "26 - Diemerparklaan" }, "geometry": { "type": "Point", "coordinates": [ 4.995227, 52.355231 ] } },
{ "type": "Feature", "properties": { "Naam": "Lumièrestraat", "Modaliteit": "Tram", "Lijn": "26", "Lijn_select": "26", "RADIUS": 5, "Label": "26 - Lumièrestraat" }, "geometry": { "type": "Point", "coordinates": [ 4.999645, 52.35288 ] } },
{ "type": "Feature", "properties": { "Naam": "Zoutkeetsgracht", "Modaliteit": "Tram", "Lijn": "3", "Lijn_select": "03", "RADIUS": 5, "Label": "3 - Zoutkeetsgracht" }, "geometry": { "type": "Point", "coordinates": [ 4.885244, 52.388061 ] } },
{ "type": "Feature", "properties": { "Naam": "Beukenweg", "Modaliteit": "Tram", "Lijn": "1 | 3", "Lijn_select": "01|03", "RADIUS": 5, "Label": "1 | 3 - Beukenweg" }, "geometry": { "type": "Point", "coordinates": [ 4.917045, 52.358583 ] } },
{ "type": "Feature", "properties": { "Naam": "Marnixplein", "Modaliteit": "Tram", "Lijn": "3 | 5", "Lijn_select": "03|05", "RADIUS": 5, "Label": "3 | 5 - Marnixplein" }, "geometry": { "type": "Point", "coordinates": [ 4.878628, 52.378388 ] } },
{ "type": "Feature", "properties": { "Naam": "Victorieplein", "Modaliteit": "Tram", "Lijn": "4 | 12", "Lijn_select": "04|12", "RADIUS": 5, "Label": "4 | 12 - Victorieplein" }, "geometry": { "type": "Point", "coordinates": [ 4.90491, 52.346239 ] } },
{ "type": "Feature", "properties": { "Naam": "Wibautstraat", "Modaliteit": "Tram", "Lijn": "3", "Lijn_select": "03", "RADIUS": 5, "Label": "3 - Wibautstraat" }, "geometry": { "type": "Point", "coordinates": [ 4.909563, 52.357317 ] } },
{ "type": "Feature", "properties": { "Naam": "Lutmastraat", "Modaliteit": "Tram", "Lijn": "4", "Lijn_select": "04", "RADIUS": 5, "Label": "4 - Lutmastraat" }, "geometry": { "type": "Point", "coordinates": [ 4.903214, 52.351682 ] } },
{ "type": "Feature", "properties": { "Naam": "Amsteldijk", "Modaliteit": "Tram", "Lijn": "12", "Lijn_select": "12", "RADIUS": 5, "Label": "12 - Amsteldijk" }, "geometry": { "type": "Point", "coordinates": [ 4.910983, 52.34709 ] } },
{ "type": "Feature", "properties": { "Naam": "Muiderpoortstation", "Modaliteit": "Tram", "Lijn": "1 | 3", "Lijn_select": "01|03", "RADIUS": 5, "Label": "1 | 3 - Muiderpoortstation" }, "geometry": { "type": "Point", "coordinates": [ 4.932961, 52.360932 ] } },
{ "type": "Feature", "properties": { "Naam": "Fredrik Hendrikplanstoen", "Modaliteit": "Tram", "Lijn": "3", "Lijn_select": "03", "RADIUS": 5, "Label": "3 - Fredrik Hendrikplanstoen" }, "geometry": { "type": "Point", "coordinates": [ 4.875346, 52.378536 ] } },
{ "type": "Feature", "properties": { "Naam": "Amstelkade", "Modaliteit": "Tram", "Lijn": "4", "Lijn_select": "04", "RADIUS": 5, "Label": "4 - Amstelkade" }, "geometry": { "type": "Point", "coordinates": [ 4.904198, 52.349062 ] } },
{ "type": "Feature", "properties": { "Naam": "Camperstraat", "Modaliteit": "Tram", "Lijn": "3", "Lijn_select": "03", "RADIUS": 5, "Label": "3 - Camperstraat" }, "geometry": { "type": "Point", "coordinates": [ 4.913607, 52.35835 ] } },
{ "type": "Feature", "properties": { "Naam": "Van Woustraat \/ Ceintuurbaan", "Modaliteit": "Tram", "Lijn": "3 | 4", "Lijn_select": "03|04", "RADIUS": 5, "Label": "3 | 4 - Van Woustraat \/ Ceintuurbaan" }, "geometry": { "type": "Point", "coordinates": [ 4.901248, 52.354817 ] } },
{ "type": "Feature", "properties": { "Naam": "Tweede Van der Helststraat", "Modaliteit": "Tram", "Lijn": "3", "Lijn_select": "03", "RADIUS": 5, "Label": "3 - Tweede Van der Helststraat" }, "geometry": { "type": "Point", "coordinates": [ 4.894586, 52.353249 ] } },
{ "type": "Feature", "properties": { "Naam": "Keizersgracht", "Modaliteit": "Tram", "Lijn": "4", "Lijn_select": "04", "RADIUS": 5, "Label": "4 - Keizersgracht" }, "geometry": { "type": "Point", "coordinates": [ 4.898301, 52.363833 ] } },
{ "type": "Feature", "properties": { "Naam": "Prinsengracht", "Modaliteit": "Tram", "Lijn": "4", "Lijn_select": "04", "RADIUS": 5, "Label": "4 - Prinsengracht" }, "geometry": { "type": "Point", "coordinates": [ 4.898988, 52.362116 ] } },
{ "type": "Feature", "properties": { "Naam": "Frederiksplein \/ Stadhouderskade", "Modaliteit": "Tram", "Lijn": "1 | 4 | 7 | 19 | 24", "Lijn_select": "01|04|07|19|24", "RADIUS": 5, "Label": "1 | 4 | 7 | 19 | 24 - Frederiksplein \/ Stadhouderskade" }, "geometry": { "type": "Point", "coordinates": [ 4.898761, 52.359518 ] } },
{ "type": "Feature", "properties": { "Naam": "A.J. Ernststraat", "Modaliteit": "Tram", "Lijn": "5 | 6", "Lijn_select": "05|06", "RADIUS": 5, "Label": "5 | 6 - A.J. Ernststraat" }, "geometry": { "type": "Point", "coordinates": [ 4.868842, 52.331424 ] } },
{ "type": "Feature", "properties": { "Naam": "Parnassusweg", "Modaliteit": "Tram", "Lijn": "5 | 6", "Lijn_select": "05|06", "RADIUS": 5, "Label": "5 | 6 - Parnassusweg" }, "geometry": { "type": "Point", "coordinates": [ 4.868701, 52.338097 ] } },
{ "type": "Feature", "properties": { "Naam": "Uilenstede", "Modaliteit": "Tram", "Lijn": "5 | 6", "Lijn_select": "05|06", "RADIUS": 5, "Label": "5 | 6 - Uilenstede" }, "geometry": { "type": "Point", "coordinates": [ 4.869154, 52.321625 ] } },
{ "type": "Feature", "properties": { "Naam": "Olympisch Stadion", "Modaliteit": "Tram", "Lijn": "24", "Lijn_select": "24", "RADIUS": 5, "Label": "24 - Olympisch Stadion" }, "geometry": { "type": "Point", "coordinates": [ 4.856897, 52.343952 ] } },
{ "type": "Feature", "properties": { "Naam": "Biesbosch", "Modaliteit": "Tram", "Lijn": "5 | 6", "Lijn_select": "05|06", "RADIUS": 5, "Label": "5 | 6 - Biesbosch" }, "geometry": { "type": "Point", "coordinates": [ 4.872233, 52.312366 ] } },
{ "type": "Feature", "properties": { "Naam": "Oranjebaan", "Modaliteit": "Tram", "Lijn": "5 | 6", "Lijn_select": "05|06", "RADIUS": 5, "Label": "5 | 6 - Oranjebaan" }, "geometry": { "type": "Point", "coordinates": [ 4.872513, 52.308278 ] } },
{ "type": "Feature", "properties": { "Naam": "Onderuit", "Modaliteit": "Tram", "Lijn": "5 | 6", "Lijn_select": "05|06", "RADIUS": 5, "Label": "5 | 6 - Onderuit" }, "geometry": { "type": "Point", "coordinates": [ 4.872513, 52.308278 ] } },
{ "type": "Feature", "properties": { "Naam": "De Boelelaan\/VU", "Modaliteit": "Tram", "Lijn": "5 | 6 | 24", "Lijn_select": "05|06|24", "RADIUS": 5, "Label": "5 | 6 | 24 - De Boelelaan\/VU" }, "geometry": { "type": "Point", "coordinates": [ 4.8683894, 52.3349058 ] } },
{ "type": "Feature", "properties": { "Naam": "Van Boshuizenstraat", "Modaliteit": "Tram", "Lijn": "5 | 6", "Lijn_select": "05|06", "RADIUS": 5, "Label": "5 | 6 - Van Boshuizenstraat" }, "geometry": { "type": "Point", "coordinates": [ 4.868971, 52.325399 ] } },
{ "type": "Feature", "properties": { "Naam": "Olympiaweg", "Modaliteit": "Tram", "Lijn": "24", "Lijn_select": "24", "RADIUS": 5, "Label": "24 - Olympiaweg" }, "geometry": { "type": "Point", "coordinates": [ 4.858529, 52.345266 ] } },
{ "type": "Feature", "properties": { "Naam": "Olympiaplein", "Modaliteit": "Tram", "Lijn": "24", "Lijn_select": "24", "RADIUS": 5, "Label": "24 - Olympiaplein" }, "geometry": { "type": "Point", "coordinates": [ 4.866262, 52.346334 ] } },
{ "type": "Feature", "properties": { "Naam": "Gerrit van der Veenstraat", "Modaliteit": "Tram", "Lijn": "5 | 24", "Lijn_select": "05|24", "RADIUS": 5, "Label": "5 | 24 - Gerrit van der Veenstraat" }, "geometry": { "type": "Point", "coordinates": [ 4.877281, 52.349093 ] } },
{ "type": "Feature", "properties": { "Naam": "Witte de Withstraat", "Modaliteit": "Tram", "Lijn": "7 | 17", "Lijn_select": "07|17", "RADIUS": 5, "Label": "7 | 17 - Witte de Withstraat" }, "geometry": { "type": "Point", "coordinates": [ 4.859681, 52.364719 ] } },
{ "type": "Feature", "properties": { "Naam": "Willem Schoutenstraat", "Modaliteit": "Tram", "Lijn": "7", "Lijn_select": "07", "RADIUS": 5, "Label": "7 - Willem Schoutenstraat" }, "geometry": { "type": "Point", "coordinates": [ 4.852487, 52.367168 ] } },
{ "type": "Feature", "properties": { "Naam": "Admiraal De Ruijterweg", "Modaliteit": "Tram", "Lijn": "13 | 19", "Lijn_select": "13|19", "RADIUS": 5, "Label": "13 | 19 - Admiraal De Ruijterweg" }, "geometry": { "type": "Point", "coordinates": [ 4.859972, 52.371493 ] } },
{ "type": "Feature", "properties": { "Naam": "J.P.Heijestraat", "Modaliteit": "Tram", "Lijn": "7 | 17", "Lijn_select": "07|17", "RADIUS": 5, "Label": "7 | 17 - J.P.Heijestraat" }, "geometry": { "type": "Point", "coordinates": [ 4.862706, 52.364805 ] } },
{ "type": "Feature", "properties": { "Naam": "Station Zuid", "Modaliteit": "Tram", "Lijn": "5 | 6 | 50 | 51 | 52", "Lijn_select": "05|06|50|51|52", "RADIUS": 5, "Label": "5 | 6 | 50 | 51 | 52 - Station Zuid" }, "geometry": { "type": "Point", "coordinates": [ 4.873149, 52.340159 ] } },
{ "type": "Feature", "properties": { "Naam": "Station Lelylaan", "Modaliteit": "Tram", "Lijn": "1 | 17 | 50 | 51", "Lijn_select": "01|17|50|51", "RADIUS": 5, "Label": "1 | 17 | 50 | 51 - Station Lelylaan" }, "geometry": { "type": "Point", "coordinates": [ 4.834378, 52.357888 ] } },
{ "type": "Feature", "properties": { "Naam": "Station Sloterdijjk", "Modaliteit": "Tram", "Lijn": "19 | 50 | 51", "Lijn_select": "19|50|51", "RADIUS": 5, "Label": "19 | 50 | 51 - Station Sloterdijjk" }, "geometry": { "type": "Point", "coordinates": [ 4.83889, 52.388597 ] } },
{ "type": "Feature", "properties": { "Naam": "Jan van Galenstraat", "Modaliteit": "Tram", "Lijn": "13 | 50 | 51", "Lijn_select": "13|50|51", "RADIUS": 5, "Label": "13 | 50 | 51 - Jan van Galenstraat" }, "geometry": { "type": "Point", "coordinates": [ 4.835503, 52.373121 ] } },
{ "type": "Feature", "properties": { "Naam": "Burg. De Vlugtlaan", "Modaliteit": "Tram", "Lijn": "7 | 50 | 51", "Lijn_select": "07|50|51", "RADIUS": 5, "Label": "7 | 50 | 51 - Burg. De Vlugtlaan" }, "geometry": { "type": "Point", "coordinates": [ 4.837885, 52.378831 ] } },
{ "type": "Feature", "properties": { "Naam": "Heemstedestraat", "Modaliteit": "Tram", "Lijn": "2 | 50 | 51", "Lijn_select": "02|50|51", "RADIUS": 5, "Label": "2 | 50 | 51 - Heemstedestraat" }, "geometry": { "type": "Point", "coordinates": [ 4.834339, 52.351499 ] } },
{ "type": "Feature", "properties": { "Naam": "Amstelveenseweg", "Modaliteit": "Tram", "Lijn": "24 | 50 | 51", "Lijn_select": "24|50|51", "RADIUS": 5, "Label": "24 | 50 | 51 - Amstelveenseweg" }, "geometry": { "type": "Point", "coordinates": [ 4.857276, 52.338388 ] } },
{ "type": "Feature", "properties": { "Naam": "Station RAI", "Modaliteit": "Tram", "Lijn": "4 | 50 | 51", "Lijn_select": "04|50|51", "RADIUS": 5, "Label": "4 | 50 | 51 - Station RAI" }, "geometry": { "type": "Point", "coordinates": [ 4.890729, 52.337 ] } },
{ "type": "Feature", "properties": { "Naam": "Centraal Station", "Modaliteit": "Tram", "Lijn": "2 | 4 | 12 | 13 | 14 | 17 | 26 | 51 | 52 | 53 | 54", "Lijn_select": "02|04|12|13|14|17|26|51|52|53|54", "RADIUS": 5, "Label": "2 | 4 | 12 | 13 | 14 | 17 | 26 | 51 | 52 | 53 | 54 - Centraal Station" }, "geometry": { "type": "Point", "coordinates": [ 4.899778, 52.378021 ] } },
{ "type": "Feature", "properties": { "Naam": "Waterlooplein", "Modaliteit": "Tram", "Lijn": "14 | 51 | 53 | 54", "Lijn_select": "14|51|53|54", "RADIUS": 5, "Label": "14 | 51 | 53 | 54 - Waterlooplein" }, "geometry": { "type": "Point", "coordinates": [ 4.902406, 52.367343 ] } },
{ "type": "Feature", "properties": { "Naam": "Weesperplein", "Modaliteit": "Tram", "Lijn": "1 | 7 | 19 | 51 | 53 | 54", "Lijn_select": "01|07|19|51|53|54", "RADIUS": 5, "Label": "1 | 7 | 19 | 51 | 53 | 54 - Weesperplein" }, "geometry": { "type": "Point", "coordinates": [ 4.907983, 52.361167 ] } },
{ "type": "Feature", "properties": { "Naam": "Amstelstation", "Modaliteit": "Tram", "Lijn": "12 | 51 | 53 | 54", "Lijn_select": "12|51|53|54", "RADIUS": 5, "Label": "12 | 51 | 53 | 54 - Amstelstation" }, "geometry": { "type": "Point", "coordinates": [ 4.918302, 52.346657 ] } },
{ "type": "Feature", "properties": { "Naam": "Bob Haarmslaan", "Modaliteit": "Tram", "Lijn": "26", "Lijn_select": "26", "RADIUS": 5, "Label": "26 - Bob Haarmslaan" }, "geometry": { "type": "Point", "coordinates": [ 4.968966, 52.368933 ] } },
{ "type": "Feature", "properties": { "Naam": "Westermarkt", "Modaliteit": "Tram", "Lijn": "13 | 17", "Lijn_select": "13|17", "RADIUS": 5, "Label": "13 | 17 - Westermarkt" }, "geometry": { "type": "Point", "coordinates": [ 4.884111, 52.374029 ] } },
{ "type": "Feature", "properties": { "Naam": "Rijksmuseum", "Modaliteit": "Tram", "Lijn": "2 | 5 | 12", "Lijn_select": "02|05|12", "RADIUS": 5, "Label": "2 | 5 | 12 - Rijksmuseum" }, "geometry": { "type": "Point", "coordinates": [ 4.8835434, 52.3598116 ] } },
{ "type": "Feature", "properties": { "Naam": "Hugo de Grootplein", "Modaliteit": "Tram", "Lijn": "3", "Lijn_select": "03", "RADIUS": 5, "Label": "3 - Hugo de Grootplein" }, "geometry": { "type": "Point", "coordinates": [ 4.8727744, 52.3746786 ] } },
{ "type": "Feature", "properties": { "Naam": "Drenthepark", "Modaliteit": "Tram", "Lijn": "4", "Lijn_select": "04", "RADIUS": 5, "Label": "4 - Drenthepark" }, "geometry": { "type": "Point", "coordinates": [ 4.8893145, 52.3361469 ] } },
{ "type": "Feature", "properties": { "Naam": "Bloemgracht", "Modaliteit": "Tram", "Lijn": "5", "Lijn_select": "05", "RADIUS": 5, "Label": "5 - Bloemgracht" }, "geometry": { "type": "Point", "coordinates": [ 4.8764556, 52.3743338 ] } },
{ "type": "Feature", "properties": { "Naam": "Jan van Galenstraat", "Modaliteit": "Tram", "Lijn": "7", "Lijn_select": "07", "RADIUS": 5, "Label": "7 - Jan van Galenstraat" }, "geometry": { "type": "Point", "coordinates": [ 4.8486187, 52.3732343 ] } },
{ "type": "Feature", "properties": { "Naam": "Karel Doormanstraat \/ De Rijpstraat", "Modaliteit": "Tram", "Lijn": "19", "Lijn_select": "19", "RADIUS": 5, "Label": "19 - Karel Doormanstraat \/ De Rijpstraat" }, "geometry": { "type": "Point", "coordinates": [ 4.8574601, 52.3781242 ] } },
{ "type": "Feature", "properties": { "Naam": "VUmc", "Modaliteit": "Tram", "Lijn": "24", "Lijn_select": "24", "RADIUS": 5, "Label": "24 - VUmc" }, "geometry": { "type": "Point", "coordinates": [ 4.8598341, 52.3351724 ] } }
]
}
